address,area,city,detail,lat,lng,name,province,street_id,telephone,uid
深圳市南山区环东路西环北路滨海之窗花园8栋102号A商铺,南山区,深圳市,1,22.526187,113.94364,汇丰银行(南山支行),广东省,90f5d90fb48a7cf37369d3c8,4008203090,90f5d90fb48a7cf37369d3c8
深圳市南山区深南大道9026-2,南山区,深圳市,1,22.542627,113.98375,汇丰银行(华侨城支行),广东省,f696f3c2f75124eb1b11d577,4008203090,f696f3c2f75124eb1b11d577
深圳市前海深港合作区前湾一路63号前海企业公馆2栋B单元,南山区,深圳市,1,22.522464,113.908774,汇丰银行(前海支行),广东省,9423cb19e50fa21be3110387,4008203090,df1210de79c776275a3ac8da
深圳市南山区环东路西环北路滨海之窗花园8栋102号A商铺,南山区,深圳市,1,22.526198,113.94384,汇丰银行24小时自助银行(深圳南山支行),广东省,1376cbb1f09553baf7b916d0,,35debf29e6fe3d3aa6da39e3
万科前海企业公馆2栋B,南山区,深圳市,1,22.522318,113.908729,汇丰银行ATM(深圳前海支行),广东省,13b568883cabdfe215a190db,,13b568883cabdfe215a190db
深圳市南山区白石路2168号南山京基·百纳广场F1,南山区,深圳市,1,22.536377,113.976004,汇丰银行24小时自助银行(南山京基百纳广场),广东省,09b0c47e3ad5fb4588db734d,,09b0c47e3ad5fb4588db734d
深圳市南山区深南大道9026-2,南山区,深圳市,1,22.54254,113.983453,汇丰银行24小时自助银行,广东省,251374c9e795293fa11de976,,251374c9e795293fa11de976
