address,area,city,detail,lat,lng,name,province,street_id,telephone,uid
宏福路与欣旺大街交汇处鸿坤广场购物中心1层东北角1-18A号,大兴区,北京市,1,39.79774,116.347615,招商银行(西红门支行),北京市,c9b15b42fcb930cf471a3201,(010)50927475,c9b15b42fcb930cf471a3201
大兴区经济技术开发区荣华中路8号院力宝广场8号楼首层(地铁万源街站),大兴区,北京市,1,39.809614,116.50858,招商银行(亦庄支行),北京市,db268b873dcd1d8d5abbbc35,"(010)57862359,(010)57862361",db268b873dcd1d8d5abbbc35
北京市大兴区文化园西路8号院30号楼112室,大兴区,北京市,1,39.808803,116.498133,招商银行(亦庄文化园支行),北京市,77d6927b8832a2f5c3364402,(010)67832922,77d6927b8832a2f5c3364402
北京市大兴区旧桥路1号院3号楼,大兴区,北京市,1,39.812245,116.460531,招商银行(旧宫东路支行),北京市,d5c8a54af4b848b4cae33c67,(010)56407530,d5c8a54af4b848b4cae33c67
北京市大兴区经济技术开发区荣华中路8号院8号楼首层,大兴区,北京市,1,39.8095,116.50857,招商银行24小时自助银行服务(亦庄支行),北京市,71326df21996d2a814b54bca,,71326df21996d2a814b54bca
北京市大兴区北京市文化园西路8号院30号楼112室,大兴区,北京市,1,39.808847,116.498291,招商银行24小时自助银行(北京亦庄文化园支行),北京市,f31e554cbf34128014c8f6be,,f31e554cbf34128014c8f6be
宏福路与欣旺大街交汇处鸿坤广场购物中心1层东北角1-18A号,大兴区,北京市,1,39.797757,116.347674,招商银行24小时自助银行(西红门支行),北京市,83fa1168403fa1d4f219371d,,83fa1168403fa1d4f219371d
北京市大兴区永兴路7号院1号楼北京龙湖大兴天街F1层,大兴区,北京市,1,39.691844,116.326719,招商银行ATM(龙湖北京大兴天街购物中心),北京市,,,afcff8c5d34d542e7402698e
北京市大兴区旧桥路1号院3号,大兴区,北京市,1,39.812262,116.460715,招商银行24小时自助银行(旧宫东路支行),北京市,ad90c59bc0cd570e84420eb6,,ad90c59bc0cd570e84420eb6
