address,area,city,detail,lat,lng,name,province,street_id,telephone,uid
广州市天河区花城大道85号,天河区,广州市,1,23.126402,113.328125,汇丰银行(广州高德置地支行),广东省,6f97a1196be1d77eeee4a538,(020)83131886,6f97a1196be1d77eeee4a538
广州市天河区金穗路1号邦华环球广场首层,天河区,广州市,1,23.130634,113.323045,汇丰银行(广州金穗路支行),广东省,9e0feb31119630fcd6b74ece,4008203090,9e0feb31119630fcd6b74ece
天河路208号天河城1楼南门,天河区,广州市,1,23.138591,113.329375,汇丰银行24小时自助银行(天河城支行),广东省,0810d6f3325b147188f15d78,,0810d6f3325b147188f15d78
广州市天河区天河路383号太古汇F1,天河区,广州市,1,23.139586,113.337829,汇丰银行ATM(太古汇),广东省,bedee7e115cec1e5fd0eb00f,,bedee7e115cec1e5fd0eb00f
广州市天河区天河北路233号中信广场F1,天河区,广州市,1,23.148084,113.331389,汇丰银行24小时自助银行(中天购物城),广东省,9ee392b84bdb0f41babd639b,,9ee392b84bdb0f41babd639b
广州市天河区天河北路233号中信广场,天河区,广州市,1,23.148509,113.331478,汇丰银行广州中信广场支行卓越理财中心,广东省,c61bd305d517e968c37da299,,c61bd305d517e968c37da299
