address,area,city,detail,lat,lng,name,province,street_id,telephone,uid,机构名称
广州市花都区龙珠路32-9号,花都区,广州市,1,23.402909,113.237566,交通银行(广州花都支行),广东省,919be294dd5a6d99eb56fa94,"(020)36925813,(020)36925812",919be294dd5a6d99eb56fa94,交通银行
广东省广州市花都区公益路1-1,花都区,广州市,1,23.397788,113.223413,交通银行(广州骏威支行),广东省,,(020)36889787,3f5fdeea1a24cf128433040d,交通银行
广东省广州市花都区山前大道东段北侧峰境园迎湖街1号喜来登度假酒店,花都区,广州市,1,23.458498,113.45264,交通银行ATM(喜来登度假酒店),广东省,,,d12b63ec90169b33220262e2,交通银行
广东省广州市花都区紫薇路70号,花都区,广州市,1,23.410983,113.236877,交通银行24小时自助银行(广州锦东花园支行),广东省,09f8d102100801c69e82ea86,,6035e65c0da6a09bab175a67,交通银行
广州市花都区公益路1号骏威广场东明楼首层101、102商铺,花都区,广州市,1,23.397843,113.223471,交通银行24小时自助银行(广州骏威支行),广东省,7388dffded8a8eebd3ff230e,,7388dffded8a8eebd3ff230e,交通银行
龙珠路32号,花都区,广州市,1,23.402914,113.237496,交通银行24小时自助银行(广州花都支行),广东省,cef3810e7e26cff5f503b893,,cef3810e7e26cff5f503b893,交通银行
宝峰路2号友田大厦首层,花都区,广州市,1,23.462201,113.179137,交通银行24小时自助银行(广州狮岭支行),广东省,7d5f3a0ae4aafc362db90884,,7d5f3a0ae4aafc362db90884,交通银行
