address,area,city,detail,lat,lng,name,province,street_id,uid,机构名称
广东省广州市黄埔区世纪南三街1号,黄埔区,广州市,1,23.118544,113.435141,交通银行(广州金碧世纪花园支行),广东省,aca6318d91061f547ec87645,aca6318d91061f547ec87645,交通银行
庙头红荔路1号动力大厦B座102,黄埔区,广州市,1,23.090361,113.503931,交通银行ATM,广东省,b16aaaa4bcc3ac5d96ca072c,b16aaaa4bcc3ac5d96ca072c,交通银行
广州市黄埔区科学大道97号,黄埔区,广州市,1,23.17153,113.441164,交通银行24小时自助银行(广州萝岗支行),广东省,6861d010efaf5f9d60180910,6861d010efaf5f9d60180910,交通银行
广州市黄埔区黄埔东路298号惠润广场F1,黄埔区,广州市,1,23.105548,113.462773,交通银行24小时自助银行(惠润广场),广东省,8acb3043d8c7c07ee1110319,8acb3043d8c7c07ee1110319,交通银行
港湾路488号,黄埔区,广州市,1,23.108962,113.45393,交通银行24小时自助银行(黄埔支行),广东省,e57ff3fed7e1570809b93ac4,e57ff3fed7e1570809b93ac4,交通银行
黄埔东路1323,黄埔区,广州市,1,23.099544,113.485931,交通银行24小时自助银行(祥晖大厦西南),广东省,b1c556e8cf999b0cb52655bd,b1c556e8cf999b0cb52655bd,交通银行
广州市黄埔区开创大道230号百事佳亨晖广场F1,黄埔区,广州市,1,23.115818,113.549151,交通银行24小时自助银行(百事佳亨晖广场),广东省,,5824d33b5cccf39ebda2401a,交通银行
中山大道东377号附近,黄埔区,广州市,1,23.118464,113.435052,交通银行24小时自助银行服务(中山大道),广东省,6c7cfe56cf2aa629b34c49e7,6c7cfe56cf2aa629b34c49e7,交通银行
